{
  "hosts":[
    {
        "id": 1,
        "city": "Mumbai",
        "state": "Maharashtra",
        "st": "MH",
        "address": "123 ABC Street",
        "zip": "400001",
        "lat": 19.0760,
        "long": 72.8777,
        "short_name": "ABC Hotel",
        "full_name": "ABC Hotel Mumbai",
        "phone": "9876543210"
    },
    {
        "id": 2,
        "city": "Delhi",
        "state": "Delhi",
        "st": "DL",
        "address": "456 XYZ Road",
        "zip": "110001",
        "lat": 28.7041,
        "long": 77.1025,
        "short_name": "XYZ Inn",
        "full_name": "XYZ Inn Delhi",
        "phone": "9012345678"
    },
    {
        "id": 3,
        "city": "Bangalore",
        "state": "Karnataka",
        "st": "KA",
        "address": "789 DEF Avenue",
        "zip": "560001",
        "lat": 12.9716,
        "long": 77.5946,
        "short_name": "DEF Lodge",
        "full_name": "DEF Lodge Bangalore",
        "phone": "7890123456"
    },
    {
        "id": 4,
        "city": "Chennai",
        "state": "Tamil Nadu",
        "st": "TN",
        "address": "101 GHI Lane",
        "zip": "600001",
        "lat": 13.0827,
        "long": 80.2707,
        "short_name": "GHI Resort",
        "full_name": "GHI Resort Chennai",
        "phone": "6543210987"
    },
    {
        "id": 5,
        "city": "Kolkata",
        "state": "West Bengal",
        "st": "WB",
        "address": "202 JKL Street",
        "zip": "700001",
        "lat": 22.5726,
        "long": 88.3639,
        "short_name": "JKL Guesthouse",
        "full_name": "JKL Guesthouse Kolkata",
        "phone": "8901234567"
    },
    {
        "id": 6,
        "city": "Hyderabad",
        "state": "Telangana",
        "st": "TS",
        "address": "303 MNO Road",
        "zip": "500001",
        "lat": 17.3850,
        "long": 78.4867,
        "short_name": "MNO Inn",
        "full_name": "MNO Inn Hyderabad",
        "phone": "1234567890"
    },
    {
        "id": 7,
        "city": "Pune",
        "state": "Maharashtra",
        "st": "MH",
        "address": "404 PQR Avenue",
        "zip": "411001",
        "lat": 18.5204,
        "long": 73.8567,
        "short_name": "PQR Hotel",
        "full_name": "PQR Hotel Pune",
        "phone": "9870123456"
    },
    {
        "id": 8,
        "city": "Ahmedabad",
        "state": "Gujarat",
        "st": "GJ",
        "address": "505 STU Lane",
        "zip": "380001",
        "lat": 23.0225,
        "long": 72.5714,
        "short_name": "STU Lodge",
        "full_name": "STU Lodge Ahmedabad",
        "phone": "8901234567"
    },
    {
        "id": 9,
        "city": "Jaipur",
        "state": "Rajasthan",
        "st": "RJ",
        "address": "606 VWX Street",
        "zip": "302001",
        "lat": 26.9124,
        "long": 75.7873,
        "short_name": "VWX Resort",
        "full_name": "VWX Resort Jaipur",
        "phone": "6789012345"
    },
    {
        "id": 10,
        "city": "Lucknow",
        "state": "Uttar Pradesh",
        "st": "UP",
        "address": "707 YZ Lane",
        "zip": "226001",
        "lat": 26.8467,
        "long": 80.9462,
        "short_name": "YZ Guesthouse",
        "full_name": "YZ Guesthouse Lucknow",
        "phone": "5678901234"
    },
    {
        "id": 11,
        "city": "Chandigarh",
        "state": "Punjab",
        "st": "PB",
        "address": "808 KLM Road",
        "zip": "160001",
        "lat": 30.7333,
        "long": 76.7794,
        "short_name": "KLM Inn",
        "full_name": "KLM Inn Chandigarh",
        "phone": "4567890123"
    },
    {
        "id": 12,
        "city": "Bhopal",
        "state": "Madhya Pradesh",
        "st": "MP",
        "address": "909 NOP Avenue",
        "zip": "462001",
        "lat": 23.2599,
        "long": 77.4126,
        "short_name": "NOP Hotel",
        "full_name": "NOP Hotel Bhopal",
        "phone": "3456789012"
    },
    {
        "id": 13,
        "city": "Patna",
        "state": "Bihar",
        "st": "BR",
        "address": "1010 PQR Street",
        "zip": "800001",
        "lat": 25.5941,
        "long": 85.1376,
        "short_name": "PQR Lodge",
        "full_name": "PQR Lodge Patna",
        "phone": "2345678901"
    },
    {
        "id": 14,
        "city": "Dehradun",
        "state": "Uttarakhand",
        "st": "UK",
        "address": "1111 STU Road",
        "zip": "248001",
        "lat": 30.3165,
        "long": 78.0322,
        "short_name": "STU Resort",
        "full_name": "STU Resort Dehradun",
        "phone": "6789012345"
    },
    {
        "id": 15,
        "city": "Guwahati",
        "state": "Assam",
        "st": "AS",
        "address": "1212 VWX Lane",
        "zip": "781001",
        "lat": 26.1445,
        "long": 91.7362,
        "short_name": "VWX Guesthouse",
        "full_name": "VWX Guesthouse Guwahati",
        "phone": "8901234567"
    },
    {
        "id": 16,
        "city": "Bhubaneswar",
        "state": "Odisha",
        "st": "OD",
        "address": "1313 YZ Avenue",
        "zip": "751001",
        "lat": 20.2961,
        "long": 85.8245,
        "short_name": "YZ Inn",
        "full_name": "YZ Inn Bhubaneswar",
        "phone": "4567890123"
    },
    {
        "id": 17,
        "city": "Ranchi",
        "state": "Jharkhand",
        "st": "JH",
        "address": "1414 KLM Street",
        "zip": "834001",
        "lat": 23.3441,
        "long": 85.3096,
        "short_name": "KLM Hotel",
        "full_name": "KLM Hotel Ranchi",
        "phone": "2345678901"
    },
    {
        "id": 18,
        "city": "Raipur",
        "state": "Chhattisgarh",
        "st": "CG",
        "address": "1515 NOP Road",
        "zip": "492001",
        "lat": 21.2514,
        "long": 81.6296,
        "short_name": "NOP Lodge",
        "full_name": "NOP Lodge Raipur",
        "phone": "5678901234"
    },
    {
        "id": 19,
        "city": "Agartala",
        "state": "Tripura",
        "st": "TR",
        "address": "1616 PQR Lane",
        "zip": "799001",
        "lat": 23.8315,
        "long": 91.2868,
        "short_name": "PQR Resort",
        "full_name": "PQR Resort Agartala",
        "phone": "3456789012"
    },
    {
        "id": 20,
        "city": "Itanagar",
        "state": "Arunachal Pradesh",
        "st": "AR",
        "address": "1717 STU Avenue",
        "zip": "791111",
        "lat": 27.0844,
        "long": 93.6053,
        "short_name": "STU Guesthouse",
        "full_name": "STU Guesthouse Itanagar",
        "phone": "9012345678"
    },
    {
        "id": 21,
        "city": "Shillong",
        "state": "Meghalaya",
        "st": "ML",
        "address": "1818 VWX Road",
        "zip": "793001",
        "lat": 25.5788,
        "long": 91.8933,
        "short_name": "VWX Inn",
        "full_name": "VWX Inn Shillong",
        "phone": "6789012345"
    },
    {
        "id": 22,
        "city": "Imphal",
        "state": "Manipur",
        "st": "MN",
        "address": "1919 YZ Street",
        "zip": "795001",
        "lat": 24.8170,
        "long": 93.9368,
        "short_name": "YZ Hotel",
        "full_name": "YZ Hotel Imphal",
        "phone": "1234567890"
    },
    {
        "id": 23,
        "city": "Aizawl",
        "state": "Mizoram",
        "st": "MZ",
        "address": "2020 KLM Avenue",
        "zip": "796001",
        "lat": 23.7271,
        "long": 92.7176,
        "short_name": "KLM Lodge",
        "full_name": "KLM Lodge Aizawl",
        "phone": "8901234567"
    },
    {
        "id": 24,
        "city": "Kohima",
        "state": "Nagaland",
        "st": "NL",
        "address": "2121 NOP Lane",
        "zip": "797001",
        "lat": 25.6747,
        "long": 94.1104,
        "short_name": "NOP Resort",
        "full_name": "NOP Resort Kohima",
        "phone": "2345678901"
    },
    {
        "id": 25,
        "city": "Gangtok",
        "state": "Sikkim",
        "st": "SK",
        "address": "2222 PQR Road",
        "zip": "737101",
        "lat": 27.3314,
        "long": 88.6138,
        "short_name": "PQR Guesthouse",
        "full_name": "PQR Guesthouse Gangtok",
        "phone": "4567890123"
    },
    {
        "id": 26,
        "city": "Port Blair",
        "state": "Andaman and Nicobar Islands",
        "st": "AN",
        "address": "2323 STU Street",
        "zip": "744101",
        "lat": 11.6234,
        "long": 92.7265,
        "short_name": "STU Inn",
        "full_name": "STU Inn Port Blair",
        "phone": "3456789012"
    },
    {
        "id": 27,
        "city": "Panaji",
        "state": "Goa",
        "st": "GA",
        "address": "2424 VWX Avenue",
        "zip": "403001",
        "lat": 15.4909,
        "long": 73.8278,
        "short_name": "VWX Hotel",
        "full_name": "VWX Hotel Panaji",
        "phone": "9012345678"
    },
    {
        "id": 28,
        "city": "Gandhinagar",
        "state": "Gujarat",
        "st": "GJ",
        "address": "2525 YZ Lane",
        "zip": "382001",
        "lat": 23.2156,
        "long": 72.6369,
        "short_name": "YZ Lodge",
        "full_name": "YZ Lodge Gandhinagar",
        "phone": "2345678901"
    },
    {
        "id": 29,
        "city": "Naya Raipur",
        "state": "Chhattisgarh",
        "st": "CG",
        "address": "2626 KLM Road",
        "zip": "492002",
        "lat": 21.1501,
        "long": 81.6049,
        "short_name": "KLM Resort",
        "full_name": "KLM Resort Naya Raipur",
        "phone": "5678901234"
    },
    {
        "id": 30,
        "city": "Amaravati",
        "state": "Andhra Pradesh",
        "st": "AP",
        "address": "2727 NOP Street",
        "zip": "520010",
        "lat": 16.5062,
        "long": 80.6480,
        "short_name": "NOP Guesthouse",
        "full_name": "NOP Guesthouse Amaravati",
        "phone": "7890123456"
    },
    {
        "id": 31,
        "city": "Dispur",
        "state": "Assam",
        "st": "AS",
        "address": "2828 PQR Avenue",
        "zip": "781005",
        "lat": 26.1394,
        "long": 91.7698,
        "short_name": "PQR Inn",
        "full_name": "PQR Inn Dispur",
        "phone": "3456789012"
    },
    {
        "id": 32,
        "city": "Itanagar",
        "state": "Arunachal Pradesh",
        "st": "AR",
        "address": "2929 STU Lane",
        "zip": "791111",
        "lat": 27.0844,
        "long": 93.6053,
        "short_name": "STU Hotel",
        "full_name": "STU Hotel Itanagar",
        "phone": "9012345678"
    },
    {
        "id": 33,
        "city": "Patna",
        "state": "Bihar",
        "st": "BR",
        "address": "3030 VWX Road",
        "zip": "800001",
        "lat": 25.5941,
        "long": 85.1376,
        "short_name": "VWX Lodge",
        "full_name": "VWX Lodge Patna",
        "phone": "2345678901"
    },
    {
        "id": 34,
        "city": "Chandigarh",
        "state": "Punjab",
        "st": "PB",
        "address": "3131 YZ Street",
        "zip": "160001",
        "lat": 30.7333,
        "long": 76.7794,
        "short_name": "YZ Resort",
        "full_name": "YZ Resort Chandigarh",
        "phone": "5678901234"
    },
    {
        "id": 35,
        "city": "Raipur",
        "state": "Chhattisgarh",
        "st": "CG",
        "address": "3232 KLM Avenue",
        "zip": "492001",
        "lat": 21.2514,
        "long": 81.6296,
        "short_name": "KLM Guesthouse",
        "full_name": "KLM Guesthouse Raipur",
        "phone": "7890123456"
    },
    {
        "id": 36,
        "city": "Bhopal",
        "state": "Madhya Pradesh",
        "st": "MP",
        "address": "3333 NOP Street",
        "zip": "462001",
        "lat": 23.2599,
        "long": 77.4126,
        "short_name": "NOP Inn",
        "full_name": "NOP Inn Bhopal",
        "phone": "9012345678"
    },
    {
        "id": 37,
        "city": "Jaipur",
        "state": "Rajasthan",
        "st": "RJ",
        "address": "3434 PQR Lane",
        "zip": "302001",
        "lat": 26.9124,
        "long": 75.7873,
        "short_name": "PQR Hotel",
        "full_name": "PQR Hotel Jaipur",
        "phone": "2345678901"
    },
    {
        "id": 38,
        "city": "Gangtok",
        "state": "Sikkim",
        "st": "SK",
        "address": "3535 STU Road",
        "zip": "737101",
        "lat": 27.3314,
        "long": 88.6138,
        "short_name": "STU Lodge",
        "full_name": "STU Lodge Gangtok",
        "phone": "6789012345"
    },
    {
        "id": 39,
        "city": "Hyderabad",
        "state": "Telangana",
        "st": "TS",
        "address": "3636 VWX Avenue",
        "zip": "500001",
        "lat": 17.3850,
        "long": 78.4867,
        "short_name": "VWX Resort",
        "full_name": "VWX Resort Hyderabad",
        "phone": "8901234567"
    },
    {
        "id": 40,
        "city": "Thiruvananthapuram",
        "state": "Kerala",
        "st": "KL",
        "address": "3737 YZ Street",
        "zip": "695001",
        "lat": 8.5241,
        "long": 76.9366,
        "short_name": "YZ Guesthouse",
        "full_name": "YZ Guesthouse Thiruvananthapuram",
        "phone": "1234567890"
    }
]
}